{
  "type": "FeatureCollection",
  "features": [
    {
      "type": "Feature",
      "geometry": {
        "type": "Point",
        "coordinates": [40.6469, 37.9188]
      },
      "properties": {
        "title": "Sümerler Tigris Nehri Boyunca Tarım Yaptı",
        "date": -3000,
        "details": "Sümerler, Dicle Nehri boyunca sulama sistemleri kurarak tarım faaliyetlerini geliştirdi.",
        "category": "Tarih, Ekonomi",
        "source": "Genel Tarih Kaynakları"
      }
    },
    {
      "type": "Feature",
      "geometry": {
        "type": "Point",
        "coordinates": [41.3377, 37.7083]
      },
      "properties": {
        "title": "İlk İnsan Yerleşimleri Hasankeyf'te Kuruldu",
        "date": -12000,
        "details": "24 farklı kültürün izlerini taşıyan, yerleşik hayata geçişin simgesi olan bir bölgedir.",
        "category": "Tarih, Kültür",
        "source": "European Rivers Network"
      }
    },
    {
      "type": "Feature",
      "geometry": {
        "type": "Point",
        "coordinates": [41.05, 37.61]
      },
      "properties": {
        "title": "Güneydoğu Anadolu Projesi (GAP) Resmi Başlatıldı",
        "date": 1980,
        "details": "22 baraj ve sulama projelerini içeren GAP, bölgenin ekonomik kalkınmasını hedefledi.",
        "category": "Ekonomi, Ekosistem",
        "source": "UNESCO World Heritage"
      }
    },
    {
      "type": "Feature",
      "geometry": {
        "type": "Point",
        "coordinates": [41.04, 37.65]
      },
      "properties": {
        "title": "GAP Kapsamında İlk Barajların İnşaatına Başlandı",
        "date": 1982,
        "details": "GAP kapsamında Fırat ve Dicle nehirleri üzerinde birçok baraj inşaatı başlatıldı.",
        "category": "İnşaat, Ekosistem",
        "source": "Genel Tarih Kaynakları"
      }
    },
    {
      "type": "Feature",
      "geometry": {
        "type": "Point",
        "coordinates": [41.03, 37.66]
      },
      "properties": {
        "title": "Ilısu Barajı İnşaatı Resmi Olarak Başladı",
        "date": 1997,
        "details": "Baraj inşaatı, yerel halkın protestolarına ve zorunlu göçlere neden oldu; 199 yerleşim yerinden 55 bin kişi göç etti.",
        "category": "Ekosistem, Sosyal Etki",
        "source": "Hasankeyf'i Yaşatma Girişimi"
      }
    },
    {
      "type": "Feature",
      "geometry": {
        "type": "Point",
        "coordinates": [41.032, 37.664]
      },
      "properties": {
        "title": "Yerel Tepkiler ve İlk Protestolar",
        "date": 1999,
        "details": "Yerel halk, arkeologlar ve çevreciler, baraj projesine karşı ilk büyük çaplı protestoları düzenledi.",
        "category": "Yerel Tepkiler, Çevre",
        "source": "European Rivers Network"
      }
    },
    {
      "type": "Feature",
      "geometry": {
        "type": "Point",
        "coordinates": [41.038, 37.668]
      },
      "properties": {
        "title": "Ilısu Barajı İçin Uluslararası Finansman Sağlandı",
        "date": 2001,
        "details": "Proje, Avrupa'dan sağlanan kredilerle hız kazandı; ancak bu, daha fazla uluslararası protesto ve baskıya yol açtı.",
        "category": "Politika, Ekonomi",
        "source": "BBC News"
      }
    },
    {
      "type": "Feature",
      "geometry": {
        "type": "Point",
        "coordinates": [41.045, 37.673]
      },
      "properties": {
        "title": "Diyarbakır ve Batman'da Protesto Gösterileri",
        "date": 2002,
        "details": "Binlerce kişi barajın inşaatını protesto etmek için Diyarbakır ve Batman'da sokaklara döküldü.",
        "category": "Yerel Tepkiler, Sosyal Etki",
        "source": "Hasankeyf'i Yaşatma Girişimi"
      }
    },
    {
      "type": "Feature",
      "geometry": {
        "type": "Point",
        "coordinates": [41.048, 37.676]
      },
      "properties": {
        "title": "İlk Kez Askeri Müdahale Gerçekleşti",
        "date": 2003,
        "details": "Protestoları bastırmak için ilk kez asker müdahale etti, birçok kişi gözaltına alındı.",
        "category": "Askeri Müdahale, Güvenlik",
        "source": "Hasankeyf'i Yaşatma Girişimi"
      }
    },
    {
      "type": "Feature",
      "geometry": {
        "type": "Point",
        "coordinates": [41.052, 37.68]
      },
      "properties": {
        "title": "Ilısu Barajı'na Uluslararası Tepkiler",
        "date": 2006,
        "details": "Baraj finansmanı uluslararası çevreler tarafından eleştirildi, Avrupa bankaları finansmanı çekti.",
        "category": "Politika, Ekonomi",
        "source": "BBC News"
      }
    },
    {
      "type": "Feature",
      "geometry": {
        "type": "Point",
        "coordinates": [41.055, 37.684]
      },
      "properties": {
        "title": "Yerel Halkın Göçe Zorlanması",
        "date": 2007,
        "details": "199 yerleşim yerinden halkın göç ettirilmesi için resmi süreçler başlatıldı; bu süreç zorunlu hale getirildi.",
        "category": "Sosyal Etki, Zorunlu Göç",
        "source": "Reuters"
      }
    },
    {
      "type": "Feature",
      "geometry": {
        "type": "Point",
        "coordinates": [41.058, 37.688]
      },
      "properties": {
        "title": "Hasankeyf'te Arkeolojik Kazılar Hızlandı",
        "date": 2008,
        "details": "Sadece %10'u kazılan Hasankeyf'teki arkeolojik çalışmalar yetersiz kaldı.",
        "category": "Arkeoloji, Kültür",
        "source": "Archaeology News Network"
      }
    },
    {
      "type": "Feature",
      "geometry": {
        "type": "Point",
        "coordinates": [41.062, 37.692]
      },
      "properties": {
        "title": "Çevreci STK'lar Tarafından Kampanyalar Başlatıldı",
        "date": 2009,
        "details": "Çevreci sivil toplum kuruluşları, barajın durdurulması için ulusal ve uluslararası kampanyalar başlattı.",
        "category": "Çevre, Politika",
        "source": "European Rivers Network"
      }
    },
    {
      "type": "Feature",
      "geometry": {
        "type": "Point",
        "coordinates": [41.065, 37.696]
      },
      "properties": {
        "title": "Yeni Hasankeyf'in İnşası Başladı",
        "date": 2010,
        "details": "Baraj inşaatı nedeniyle yerleşim yerleri yeni Hasankeyf'e taşınmaya başlandı.",
        "category": "Sosyal Etki, Ekonomi",
        "source": "Reuters"
      }
    },
    {
      "type": "Feature",
      "geometry": {
        "type": "Point",
        "coordinates": [41.068, 37.696]
      },
